,Fuel Type Code,Station Name,Street Address,Intersection Directions,City,State,ZIP,Plus4,Station Phone,Status Code,Expected Date,Groups With Access Code,Access Days Time,Cards Accepted,BD Blends,NG Fill Type Code,NG PSI,EV Level1 EVSE Num,EV Level2 EVSE Num,EV DC Fast Count,EV Other Info,EV Network,EV Network Web,Geocode Status,Latitude,Longitude,Date Last Confirmed,ID,Updated At,Owner Type Code,Federal Agency ID,Federal Agency Name,Open Date,Hydrogen Status Link,NG Vehicle Class,LPG Primary,E85 Blender Pump,EV Connector Types,Country,Intersection Directions (French),Access Days Time (French),BD Blends (French),Groups With Access Code (French),Hydrogen Is Retail,Access Code,Access Detail Code,Federal Agency Code,Facility Type,CNG Dispenser Num,CNG On-Site Renewable Source,CNG Total Compression Capacity,CNG Storage Capacity,LNG On-Site Renewable Source,E85 Other Ethanol Blends,EV Pricing,EV Pricing (French),LPG Nozzle Types,Hydrogen Pressures,Hydrogen Standards,CNG Fill Type Code,CNG PSI,CNG Vehicle Class,LNG Vehicle Class,EV On-Site Renewable Source,Restricted Access
1328,ELEC,Hertrich Nissan JP-Eagle,1378 S Dupont Hwy,,Dover,DE,19901,,302-678-4553,E,,Private,,,,,,,1.0,,,Non-Networked,,200-9,39.136284,-75.527155,6/9/2020,46555,2021-03-11 23:22:17 UTC,P,,,1/31/2012,,,,,J1772,US,,,,Privé,,private,,,CAR_DEALER,,,,,,,Free,,,,,,,,,,
1329,ELEC,Sheridan Nissan,114 S Dupont Hwy,,New Castle,DE,19720,,302-326-6100,E,,Public - Call ahead,Dealership business hours,,,,,,3.0,1.0,,Non-Networked,,200-9,39.663533,-75.605014,3/7/2022,46556,2022-03-07 19:49:53 UTC,P,,,1/31/2012,,,,,CHADEMO J1772 J1772COMBO,US,,,,Public - Appeler à l'avance,,public,CALL,,CAR_DEALER,,,,,,,Free,,,,,,,,,,
1330,ELEC,Sheridan Nissan,114 S Dupont Hwy,,New Castle,DE,19720,,302-326-6100,E,,Private,,,,,,,1.0,,,Non-Networked,,200-9,39.663533,-75.605014,3/7/2022,46557,2022-03-07 19:49:53 UTC,P,,,1/31/2012,,,,,J1772,US,,,,Privé,,private,,,CAR_DEALER,,,,,,,Free,,,,,,,,,,
1331,ELEC,Porter Nissan,300 E Cleveland Ave,,Newark,DE,19711,,302-368-6300,E,,Public - Call ahead,Dealership business hours,,,,,,1.0,1.0,,Non-Networked,,GPS,39.687222,-75.740488,3/7/2022,46558,2022-03-07 19:49:53 UTC,P,,,1/31/2012,,,,,CHADEMO J1772,US,,,,Public - Appeler à l'avance,,public,CALL,,CAR_DEALER,,,,,,,Free,,,,,,,,,,
1332,ELEC,Porter Nissan,300 E Cleveland Ave,,Newark,DE,19711,,302-368-6300,E,,Private,,,,,,,1.0,,,Non-Networked,,GPS,39.687222,-75.740488,3/7/2022,46559,2022-03-07 19:49:53 UTC,P,,,1/31/2012,,,,,J1772,US,,,,Privé,,private,,,CAR_DEALER,,,,,,,Free,,,,,,,,,,
1714,ELEC,DTCC TERRY BUILDING 400,Scarborough Rd,,Dover,DE,19901,,888-758-4389,E,,Public,24 hours daily,,,,,,2.0,,,ChargePoint Network,http://www.chargepoint.com/,GPS,39.197334,-75.560005,3/17/2022,47361,2022-03-17 00:32:36 UTC,,,,5/1/2012,,,,,J1772,US,,,,Public,,public,,,,,,,,,,,,,,,,,,,,
2109,ELEC,Blue Water House Bed & Breakfast,407 E Market St,,Lewes,DE,19958,,302-645-7832,E,,Public,8am-10pm daily; for guests and those in need while parking is available; Drivers must bring their own J1772 cordset for Level 1 charging,,,,,2.0,,,,Non-Networked,,GPS,38.77933,-75.1355,9/10/2021,48371,2022-02-10 21:00:18 UTC,P,,,7/15/2012,,,,,NEMA520,US,,,,Public,,public,,,B_AND_B,,,,,,,Free,,,,,,,,,,
2807,ELEC,Willis Ford,15 N Dupont Blvd,Across from Wendy's on Rt 13,Smyrna,DE,19977,,,E,,Private,Service center use only,,,,,,2.0,,,Non-Networked,,200-9,39.302963,-75.604857,12/9/2021,53400,2022-02-10 19:42:29 UTC,P,,,1/1/2013,,,,,J1772,US,,,,Privé,,private,,,CAR_DEALER,,,,,,,Free,,,,,,,,,,
3355,ELEC,Delaware Welcome Center and Travel Plaza,530 John F Kennedy Memorial Hwy,Located behind the Welcome Center in the truck stop area in the southwest section of the southbound side.,Newark,DE,19702,,302-731-8599,E,,Public,24 hours daily,,,,,,2.0,,,Non-Networked,,GPS,39.660766,-75.69348611,12/9/2021,62939,2022-02-10 19:42:29 UTC,P,,,8/1/2014,,,,,J1772,US,,,,Public,,public,,,REST_STOP,,,,,,,Free,,,,,,,,,,
3777,ELEC,Cape May - Lewes Ferry Terminal,43 Cape Henlopen Dr,,Lewes,DE,19958,,800-643-3779,E,,Public,Ferry operation hours,,,,,,2.0,,,Non-Networked,,200-9,38.782012,-75.118769,12/9/2021,65415,2022-02-10 19:42:29 UTC,P,,,1/21/2015,,,,,J1772,US,,,,Public,,public,,,TRAVEL_CENTER,,,,,,,Free,,,,,,,,,,
4060,ELEC,REHOBOTH REH 1 - EV 1,34980 Midway Outlet Dr,,Rehoboth Beach,DE,19971,,888-758-4389,E,,Public,24 hours daily,,,,,,2.0,,,ChargePoint Network,http://www.chargepoint.com/,GPS,38.734828,-75.139183,3/17/2022,68162,2022-03-17 00:32:36 UTC,,,,7/2/2015,,,,,J1772,US,,,,Public,,public,,,,,,,,,,,,,,,,,,,,
4061,ELEC,REHOBOTH REH 3 EV 1,36461 Seaside Outlet Dr,,Rehoboth Beach,DE,19971,,888-758-4389,E,,Public,24 hours daily,,,,,,2.0,,,ChargePoint Network,http://www.chargepoint.com/,GPS,38.71841,-75.112641,3/17/2022,68163,2022-03-17 00:32:36 UTC,,,,7/2/2015,,,,,J1772,US,,,,Public,,public,,,,,,,,,,,,,,,,,,,,
4108,ELEC,Smyrna Rest Area,5500 DuPont Pkwy,Located in the rear of the rest area. Follow the signs for trucks.,Smyrna,DE,19977,,302-659-6750,E,,Public,24 hours daily,,,,,,2.0,,,Non-Networked,,GPS,39.322658,-75.618039,1/10/2022,68575,2022-02-10 19:42:29 UTC,P,,,6/15/2015,,,,,J1772,US,,,,Public,,public,,,REST_STOP,,,,,,,Free,,,,,,,,,,
4125,ELEC,REHOBOTH REH2 EV 1,19744-19798 DE-1,,Rehoboth Beach,DE,19971,,888-758-4389,E,,Public,24 hours daily,,,,,,2.0,,,ChargePoint Network,http://www.chargepoint.com/,GPS,38.715697,-75.109848,3/17/2022,68808,2022-03-17 00:32:36 UTC,,,,8/5/2015,,,,,J1772,US,,,,Public,,public,,,,,,,,,,,,,,,,,,,,
4177,ELEC,Royal Farms - Bridgeville,18657 Sussex Hwy,,Bridgeville,DE,19933,,303-956-8600,E,,Public,24 hours daily,,,,,,2.0,,,Non-Networked,,GPS,38.72345833,-75.58873611,1/10/2022,69735,2022-02-10 19:42:29 UTC,P,,,8/26/2015,,,,,J1772,US,,,,Public,,public,,,GAS_STATION,,,,,,,Free,,,,,,,,,,
4383,ELEC,PMHS HOMEWOOD INN,640 S College Ave,,Newark,DE,19713,,888-758-4389,E,,Public,24 hours daily,,,,,,,1.0,,ChargePoint Network,http://www.chargepoint.com/,GPS,39.659548,-75.753745,3/17/2022,71195,2022-03-17 00:32:36 UTC,,,,11/19/2015,,,,,J1772COMBO,US,,,,Public,,public,,,,,,,,,,,,,,,,,,,,
5628,ELEC,ROYAL FARMS RFS 139 DC #1,6 W Lebanon Rd,,Dover,DE,19901,,888-758-4389,E,,Public,24 hours daily,,,,,,,1.0,,ChargePoint Network,http://www.chargepoint.com/,GPS,39.117778,-75.51617,3/17/2022,80911,2022-03-17 00:32:36 UTC,,,,1/18/2017,,,,,CHADEMO J1772COMBO,US,,,,Public,,public,,,,,,,,,,,,,,,,,,,,
5700,ELEC,ROYAL FARMS RFS 142 DC #1,108 Silicato Parkway,,Milford,DE,19963,,888-758-4389,E,,Public,24 hours daily,,,,,,,1.0,,ChargePoint Network,http://www.chargepoint.com/,GPS,38.927247,-75.417979,3/17/2022,81354,2022-03-17 00:32:36 UTC,,,,2/10/2017,,,,,CHADEMO J1772COMBO,US,,,,Public,,public,,,,,,,,,,,,,,,,,,,,
5712,ELEC,ROYAL FARMS RFS 158 DC #2,20579 Dupont Blvd,,Georgetown,DE,19947,,888-758-4389,E,,Public,24 hours daily,,,,,,,1.0,,ChargePoint Network,http://www.chargepoint.com/,GPS,38.699176,-75.400529,3/17/2022,81449,2022-03-17 00:32:36 UTC,,,,2/16/2017,,,,,CHADEMO J1772COMBO,US,,,,Public,,public,,,,,,,,,,,,,,,,,,,,
5788,ELEC,ROYAL FARMS RFS 171 DC #2,11112 Laurel Road,,Laurel,DE,19956,,888-758-4389,E,,Public,24 hours daily,,,,,,,1.0,,ChargePoint Network,http://www.chargepoint.com/,GPS,38.554795,-75.555085,3/17/2022,82080,2022-03-17 00:32:36 UTC,,,,3/25/2017,,,,,CHADEMO J1772COMBO,US,,,,Public,,public,,,,,,,,,,,,,,,,,,,,
5896,ELEC,ROYAL FARMS RFS 146 DC #2,304 N DuPont Blvd,,Smyrna,DE,19977,,888-758-4389,E,,Public,24 hours daily,,,,,,,1.0,,ChargePoint Network,http://www.chargepoint.com/,GPS,39.306611,-75.606279,3/17/2022,82506,2022-03-17 00:32:36 UTC,,,,5/5/2017,,,,,CHADEMO J1772COMBO,US,,,,Public,,public,,,,,,,,,,,,,,,,,,,,
6198,ELEC,Otis Smith Park,454 E Savannah Rd,Located between Pig and Publican and Daily Market,Lewes,DE,19958,,302-645-6228,E,,Public,24 hours daily,,,,,,1.0,,,Non-Networked,,200-8,38.778332,-75.134887,12/3/2020,86271,2021-03-11 23:22:17 UTC,LG,,,8/1/2017,,,,,J1772,US,,,,Public,,public,,,PARK,,,,,,,,,,,,,,,,,
6199,ELEC,City of Lewes - Public Parking,225 Schley Ave,,Lewes,DE,19958,,302-645-6228,E,,Public,24 hours daily,,,,,,1.0,,,Non-Networked,,200-9,38.77143,-75.137003,12/3/2020,86272,2021-03-11 23:22:17 UTC,LG,,,8/1/2017,,,,,J1772,US,,,,Public,,public,,,PARKING_LOT,,,,,,,Free,,,,,,,,,,
7715,ELEC,Holts Landing State Park,26909 Holts Landing Rd,,Dagsboro,DE,19939,,302-227-2800,E,,Public,Sunrise to sunset; must pay entrance fee for access,,,,,,1.0,,,Non-Networked,,GPS,38.59069615,-75.12804594,12/3/2020,99430,2021-03-11 23:22:17 UTC,SG,,,6/15/2018,,,,,J1772,US,,,,Public,,public,,,PARK,,,,,,,Free,,,,,,,,,,
7951,ELEC,Bellevue State Park,800 Carr Rd,,Wilmington,DE,19809,,302-761-6963,E,,Public,Sunrise to sunset; 4 hour maximum,,,,,,1.0,,,Non-Networked,,GPS,39.77709476,-75.49636646,12/3/2020,100487,2021-03-11 23:22:17 UTC,SG,,,8/1/2018,,,,,J1772,US,,,,Public,,public,,,PARK,,,,,,,Free; must pay park entrance fee,,,,,,,,,,
8085,ELEC,Wawa - Tesla Supercharger,17663 Dartmouth Drive,,Lewes,DE,19958,,877-798-3752,E,,Public,24 hours daily; for Tesla use only,,,,,,,8.0,,Tesla,https://www.tesla.com/supercharger,200-9,38.74431,-75.153308,10/11/2021,102102,2021-11-04 18:37:47 UTC,P,,,7/23/2018,,,,,TESLA,US,,,,Public,,public,,,,,,,,,,$0.28 per kWh; $0.26 per minute above 60 kW and $0.13 per minute at or below 60 kW,,,,,,,,,,
8086,ELEC,"Newark, DE - Tesla Supercharger",530 John F Kennedy Memorial Hwy,,Newark,DE,19702,,877-798-3752,E,,Public,24 hours daily; for Tesla use only,,,,,,,12.0,,Tesla,https://www.tesla.com/supercharger,GPS,39.663509,-75.690168,10/11/2021,102103,2021-11-04 18:37:47 UTC,P,,,6/1/2013,,,,,TESLA,US,,,,Public,,public,,,,,,,,,,$0.28 per kWh; $0.26 per minute above 60 kW and $0.13 per minute at or below 60 kW,,,,,,,,,,
9922,ELEC,Hyatt Place Dewey Beach - Tesla Destination,1301 Coastal Hwy,,Dewey Beach,DE,19971,,302-864-9100  877-798-3752,E,,Public,24 hours daily; for customer use only; see front desk for access,,,,,,2.0,,,Tesla Destination,https://www.tesla.com/destination-charging,200-8,38.688936,-75.074622,11/3/2020,113676,2021-03-11 23:22:17 UTC,P,,,10/1/2015,,,,,TESLA,US,,,,Public,,public,,,HOTEL,,,,,,,Free,,,,,,,,,,
9923,ELEC,Lewes City Parking Lot - Tesla Destination,225 Schley Ave,,Lewes,DE,19958,,302-703-2568  877-798-3752,E,,Public,24 hours daily,,,,,,1.0,,,Tesla Destination,https://www.tesla.com/destination-charging,200-9,38.77143,-75.137003,11/3/2020,113677,2021-03-11 23:22:17 UTC,P,,,8/1/2017,,,,,TESLA,US,,,,Public,,public,,,PARKING_LOT,,,,,,,Free,,,,,,,,,,
9924,ELEC,Otis Smith Park - Tesla Destination,454 E Savannah Rd,,Lewes,DE,19958,,302-645-7777  877-798-3752,E,,Public,24 hours daily,,,,,,1.0,,,Tesla Destination,https://www.tesla.com/destination-charging,200-8,38.777089,-75.136507,11/3/2020,113678,2021-03-11 23:22:17 UTC,P,,,8/1/2017,,,,,TESLA,US,,,,Public,,public,,,PARK,,,,,,,Free,,,,,,,,,,
9925,ELEC,DogFish Head Brewery - Tesla Destination,6 Cannery Village Center,,MIlton,DE,19968,,302-684-1000  877-798-3752,E,,Public,24 hours daily; for customer use only,,,,,,3.0,,,Tesla Destination,https://www.tesla.com/destination-charging,200-8,38.767283,-75.313513,11/3/2020,113679,2021-03-11 23:22:17 UTC,P,,,11/1/2018,,,,,J1772 TESLA,US,,,,Public,,public,,,BREWERY_DISTILLERY_WINERY,,,,,,,Free,,,,,,,,,,
9926,ELEC,"The Bellmoor Inn & Spa, a Select Registry Property - Tesla Destination",6 Christian St,,Rehoboth Beach,DE,19971,,302-227-5800  877-798-3752,E,,Public,24 hours daily; for customer use only; see front desk for access,,,,,,2.0,,,Tesla Destination,https://www.tesla.com/destination-charging,200-9,38.714651,-75.082394,11/3/2020,113680,2021-03-11 23:22:17 UTC,P,,,11/1/2015,,,,,J1772 TESLA,US,,,,Public,,public,,,INN,,,,,,,Free,,,,,,,,,,
12511,ELEC,Wawa - Tesla Supercharger,2800 North Dupont Highway,,Dover,DE,19901,,877-798-3752,E,,Public,24 hours daily; for Tesla use only,A D Debit M V,,,,,,8.0,,Tesla,https://www.tesla.com/supercharger,GPS,39.195256,-75.54727,10/11/2021,117080,2021-11-04 18:37:47 UTC,P,,,12/1/2018,,,,,TESLA,US,,,,Public,,public,,,CONVENIENCE_STORE,,,,,,,$0.28 per kWh; $0.26 per minute above 60 kW and $0.13 per minute at or below 60 kW,,,,,,,,,,
12657,ELEC,Newark Train Station,10 Mopar Dr,,Newark,DE,19713,,302-366-7000,E,,Public,24 hours daily,,,,,,10.0,,,Non-Networked,,200-9,39.669949,-75.753275,12/3/2020,117601,2021-03-11 23:22:17 UTC,P,,,12/1/2018,,,,,J1772,US,,,,Public,,public,,,PARKING_LOT,,,,,,,,,,,,,,,,,
13353,ELEC,Wawa - Tesla Supercharger,605 Naamans Road,,Brandywine,DE,19703,,877-798-3752,E,,Public,24 hours daily; for Tesla use only,,,,,,,8.0,,Tesla,https://www.tesla.com/supercharger,200-9,39.817478,-75.457259,10/11/2021,122345,2021-11-04 18:37:47 UTC,P,,,3/1/2019,,,,,TESLA,US,,,,Public,,public,,,,,,,,,,$0.28 per kWh; $0.26 per minute above 60 kW and $0.13 per minute at or below 60 kW,,,,,,,,,,
13400,ELEC,Bellefonte Brewing Co - Tesla Destination,3605 Old Capitol Trl C8,,Wilmington,DE,19808,,302-407-6765  877-798-3752,E,,Public,24 hours daily; for customer use only,,,,,,2.0,,,Tesla Destination,https://www.tesla.com/destination-charging,200-8,39.73022,-75.633325,11/3/2020,122408,2021-03-11 23:22:17 UTC,P,,,3/1/2019,,,,,TESLA,US,,,,Public,,public,,,,,,,,,,Free,,,,,,,,,,
14028,ELEC,Bank of America - 1000 Samoset Dr,900 Samoset Dr,,Newark,DE,19713,,,E,,Private,,,,,,,2.0,,,Non-Networked,,200-8,39.683873,-75.675077,5/6/2021,123501,2022-02-24 20:26:06 UTC,P,,,4/14/2017,,,,,J1772,US,,,,Privé,,private,,,BANK,,,,,,,,,,,,,,,,,
14040,ELEC,Bank of America - Deerfield,655 Paper Mill Rd,,Newark,DE,19711,,,E,,Private,,,,,,,2.0,,,Non-Networked,,200-9,39.714204,-75.74402,5/6/2021,123514,2022-02-24 20:26:06 UTC,P,,,4/26/2017,,,,,J1772,US,,,,Privé,,private,,,BANK,,,,,,,,,,,,,,,,,
14596,ELEC,DUNCAN CENTER DSEU 1,21 Jerusalem Way,,Dover,DE,19901,,888-758-4389,E,,Public,24 hours daily,,,,,,2.0,,,ChargePoint Network,http://www.chargepoint.com/,GPS,39.156331,-75.531106,3/17/2022,143650,2022-03-17 00:32:36 UTC,,,,8/15/2019,,,,,J1772,US,,,,Public,,public,,,,,,,,,,,,,,,,,,,,
15673,ELEC,Christiana Care Health System,4755 Ogletown Stanton Road,,Newark,DE,19718,,800-663-5633,E,,Public,MO: Not Specified; TU: Not Specified; WE: Not Specified; TH: Not Specified; FR: Not Specified; SA: Not Specified; SU: Not Specified,,,,,,6.0,,,SemaCharge Network,https://semaconnect.com/,GPS,39.6878859,-75.668995,3/17/2022,148216,2022-03-17 00:22:38 UTC,,,,10/1/2017,,,,,J1772,US,,,,Public,,public,,,,,,,,,,FREE,,,,,,,,,,
15797,ELEC,DNREC Charging Station,130 West Water Street,"These charging stations are located on the west side of the parking lot, facing W. Water Street. The parking lot is called the  ""Kent County Courthouse Parking Lot,""",Dover,DE,19904,,800-663-5633,E,,Public,MO: 12:00am-12:00am; TU: 12:00am-12:00am; WE: 12:00am-12:00am; TH: 12:00am-12:00am; FR: 12:00am-12:00am; SA: 12:00am-12:00am; SU: 12:00am-12:00am,,,,,,2.0,,,SemaCharge Network,https://semaconnect.com/,GPS,39.1541941,-75.5256442,3/17/2022,148461,2022-03-17 00:22:38 UTC,,,,7/15/2016,,,,,J1772,US,,,,Public,,public,,,,,,,,,,FREE,,,,,,,,,,
15809,ELEC,Garlow Inn,82 Sussex Street,,Rehoboth Beach,DE,19971,,800-663-5633,E,,Public,MO: Not Specified; TU: Not Specified; WE: Not Specified; TH: Not Specified; FR: Not Specified; SA: Not Specified; SU: Not Specified,,,,,,1.0,,,SemaCharge Network,https://semaconnect.com/,GPS,38.715967,-75.088252,3/17/2022,148483,2022-03-17 00:22:38 UTC,,,,7/4/2019,,,,,J1772,US,,,,Public,,public,,,,,,,,,,FREE,,,,,,,,,,
16867,ELEC,Rise Up Coffee Rehoboth - Tesla Destination,502  Rehoboth Ave,,Rehoboth,DE,19971,,302-567-2588  877-798-3752,E,,Public,24 hours daily,,,,,,2.0,,,Tesla Destination,https://www.tesla.com/destination-charging,200-9,38.714461,-75.091011,11/3/2020,150603,2021-03-11 23:22:17 UTC,P,,,9/30/2019,,,,,TESLA,US,,,,Public,,public,,,,,,,,,,Free,,,,,,,,,,
18271,ELEC,Bellevue Main Lot,800 Carr Road,,Wilmington,DE,19809,,800-663-5633,E,,Public,MO: Not Specified; TU: Not Specified; WE: Not Specified; TH: Not Specified; FR: Not Specified; SA: Not Specified; SU: Not Specified,,,,,,1.0,,,SemaCharge Network,https://semaconnect.com/,GPS,39.7812114,-75.5023969,3/17/2022,154129,2022-03-17 00:22:38 UTC,,,,2/28/2020,,,,,J1772,US,,,,Public,,public,,,,,,,,,,FREE,,,,,,,,,,
18272,ELEC,Holts Landing State Park,39415 Inlet Road,,Rehoboth Beach,DE,19971,,800-663-5633,E,,Public,MO: Not Specified; TU: Not Specified; WE: Not Specified; TH: Not Specified; FR: Not Specified; SA: Not Specified; SU: Not Specified,,,,,,1.0,,,SemaCharge Network,https://semaconnect.com/,GPS,38.6128174,-75.0716849,3/17/2022,154131,2022-03-17 00:22:38 UTC,,,,2/28/2020,,,,,J1772,US,,,,Public,,public,,,,,,,,,,FREE,,,,,,,,,,
18273,ELEC,Indian River Marina,39415 Inlet Road,,Rehoboth Beach,DE,19971,,800-663-5633,E,,Public,MO: Not Specified; TU: Not Specified; WE: Not Specified; TH: Not Specified; FR: Not Specified; SA: Not Specified; SU: Not Specified,,,,,,1.0,,,SemaCharge Network,https://semaconnect.com/,GPS,38.6128174,-75.0716849,3/17/2022,154132,2022-03-17 00:22:38 UTC,,,,2/28/2020,,,,,J1772,US,,,,Public,,public,,,,,,,,,,FREE,,,,,,,,,,
18961,ELEC,Rodney Square,1000 N King St,,Wilmington,DE,19801,,,E,,Private,,,,,,,2.0,,,Non-Networked,,200-9,39.745531,-75.546151,12/9/2021,155685,2022-02-10 19:42:29 UTC,P,,,3/19/2020,,,,,J1772,US,,,,Privé,,private,,,OFFICE_BLDG,,,,,,,,,,,,,,,,,
19112,ELEC,Porter Chevrolet,414 E Cleveland Ave,,Newark,DE,19711,,302-722-4822,E,,Public,Dealership business hours,,,,,,1.0,,,Non-Networked,,GPS,39.686796,-75.737198,6/9/2020,156253,2021-03-11 23:22:17 UTC,P,,,5/8/2020,,,,,J1772,US,,,,Public,,public,,,CAR_DEALER,,,,,,,,,,,,,,,,,
19400,ELEC,Audi Wilmington,1300 N Union St,,Wilmington,DE,19806,,888-998-2546,E,,Public,MON: 24 hours | TUE: 24 hours | WED: 24 hours | THU: 24 hours | FRI: 24 hours | SAT: 24 hours | SUN: 24 hours,,,,,,3.0,,,Blink Network,http://www.blinkcharging.com/,GPS,39.757177,-75.567219,3/16/2022,158229,2022-03-16 22:55:14 UTC,,,,5/30/2020,,,,,J1772,US,,,,Public,,public,,,,,,,,,,Level 2: $0.03 per 30 seconds,,,,,,,,,,
23205,ELEC,Greenhill Car Wash,890 Middletown Warwick Rd,,Middletown,DE,19709,,800-663-5633,E,,Public,MO: Not Specified; TU: Not Specified; WE: Not Specified; TH: Not Specified; FR: Not Specified; SA: Not Specified; SU: Not Specified,,,,,,2.0,,,SemaCharge Network,https://semaconnect.com/,GPS,39.4381161,-75.7512876,3/17/2022,164785,2022-03-17 00:22:38 UTC,,,,8/1/2020,,,,,J1772,US,,,,Public,,public,,,,,,,,,,$0.00-$1.00/Hr Variable Parking Fee,,,,,,,,,,
23515,ELEC,"WAWA Store 840 - New Castle, DE",4000 N. DuPont Hwy,,New Castle,DE,19720,,833-632-2778,E,,Public,24 hours daily,,,,,,,6.0,,Electrify America,https://www.electrifyamerica.com/,GPS,39.709324,-75.562649,3/17/2022,165405,2022-03-17 01:34:10 UTC,,,,8/22/2020,,,,,CHADEMO J1772COMBO,US,,,,Public,,public,,,,,,,,,,,,,,,,,,,,
23961,ELEC,Christiana Mall - Nordstrom,132 Christiana Mall,,Newark,DE,19702,,888-264-2208,E,,Public,6am-12am daily,,,,,,4.0,,,Volta,https://voltacharging.com/,GPS,39.680982,-75.65261,4/8/2021,166731,2022-02-10 19:42:29 UTC,P,,,8/31/2020,,,,,J1772,US,,,,Public,,public,,,SHOPPING_MALL,,,,,,,,,,,,,,,,,
23962,ELEC,Christiana Mall - Urban Outfitters,132 Christiana Mall,,Newark,DE,19702,,888-264-2208,E,,Public,6am-12am daily,,,,,,4.0,,,Volta,https://voltacharging.com/,GPS,39.679779,-75.651662,4/8/2021,166732,2022-02-10 19:42:29 UTC,P,,,8/31/2020,,,,,J1772,US,,,,Public,,public,,,SHOPPING_MALL,,,,,,,,,,,,,,,,,
23963,ELEC,Christiana Mall - Barnes & Noble,132 Christiana Mall,,Newark,DE,19702,,888-264-2208,E,,Public,6am-12am daily,,,,,,2.0,,,Volta,https://voltacharging.com/,GPS,39.679419,-75.651206,4/8/2021,166733,2022-02-10 19:42:29 UTC,P,,,8/31/2020,,,,,J1772,US,,,,Public,,public,,,SHOPPING_MALL,,,,,,,,,,,,,,,,,
23964,ELEC,Giant Food - Millsboro,25939 John J Williams Hwy,,Millsboro,DE,19966,,888-264-2208,E,,Public,6am-12am daily,,,,,,2.0,,,Volta,https://voltacharging.com/,GPS,38.630925,-75.193739,4/8/2021,166734,2022-02-10 19:42:29 UTC,P,,,8/31/2020,,,,,J1772,US,,,,Public,,public,,,GROCERY,,,,,,,,,,,,,,,,,
24541,ELEC,Delaware Technical Community College,100 Campus Drive,,Dover,DE,19904,,888-998-2546,E,,Public,MON: 24 hours | TUE: 24 hours | WED: 24 hours | THU: 24 hours | FRI: 24 hours | SAT: 24 hours | SUN: 24 hours,,,,,,2.0,,,Blink Network,http://www.blinkcharging.com/,GPS,39.197341,-75.559991,3/16/2022,167664,2022-03-16 22:55:14 UTC,,,,10/22/2020,,,,,J1772,US,,,,Public,,public,,,,,,,,,,Free,,,,,,,,,,
24682,ELEC,Wawa - Tesla Supercharger,2621 Philadelphia Pike,,Claymont,DE,19703,,877-798-3752,E,,Public,24 hours daily; for Tesla use only,,,,,,,8.0,,Tesla,https://www.tesla.com/supercharger,GPS,39.794553,-75.469448,10/11/2021,168041,2021-11-04 18:37:47 UTC,P,,,10/26/2020,,,,,TESLA,US,,,,Public,,public,,,CONVENIENCE_STORE,,,,,,,$0.28 per kWh; $0.26 per minute above 60 kW and $0.13 per minute at or below 60 kW,,,,,,,,,,
25699,ELEC,Bethany Beach Training Center,163 Scannell Blvd,"ATTN USERS:
This is a secure facility.  These stations are only available to staff, fleet, or approved visitors to BBTS.  Visitors include those renting trailers or RV sites.   This site is not open to the general public.",Bethany Beach,DE,19930,,800-663-5633,E,,Public,MO: 12:00am-12:00am; TU: 12:00am-12:00am; WE: 12:00am-12:00am; TH: 12:00am-12:00am; FR: 12:00am-12:00am; SA: 12:00am-12:00am; SU: 12:00am-12:00am,,,,,,2.0,,,SemaCharge Network,https://semaconnect.com/,GPS,38.5460507,-75.0609093,3/17/2022,169362,2022-03-17 00:22:38 UTC,,,,11/20/2020,,,,,J1772,US,,,,Public,,public,,,,,,,,,,FREE,,,,,,,,,,
25711,ELEC,ABESSINIO LLC STADIUM #3,1 St Rocco Way,,Wilmington,DE,19802,,888-758-4389,E,,Public,24 hours daily,,,,,,2.0,,,ChargePoint Network,http://www.chargepoint.com/,GPS,39.760311,-75.553089,3/17/2022,169376,2022-03-17 00:32:36 UTC,,,,11/20/2020,,,,,J1772,US,,,,Public,,public,,,,,,,,,,,,,,,,,,,,
26539,ELEC,Smyrna Readiness Center,210 Artisan Drive,,Smyrna,DE,19977,,800-663-5633,E,,Public,MO: Not Specified; TU: Not Specified; WE: Not Specified; TH: Not Specified; FR: Not Specified; SA: Not Specified; SU: Not Specified,,,,,,2.0,,,SemaCharge Network,https://semaconnect.com/,GPS,39.2814691,-75.6221863,3/17/2022,170940,2022-03-17 00:22:38 UTC,,,,1/6/2021,,,,,J1772,US,,,,Public,,public,,,,,,,,,,FREE,,,,,,,,,,
26766,ELEC,Wawa - Tesla Supercharger,30155 Veterans Way,,Rehoboth,DE,19971,,877-798-3752,E,,Public,24 hours daily; for Tesla use only,,,,,,,8.0,,Tesla,https://www.tesla.com/supercharger,GPS,38.712616,-75.103793,10/11/2021,171469,2021-11-04 18:37:47 UTC,P,,,1/4/2021,,,,,TESLA,US,,,,Public,,public,,,CONVENIENCE_STORE,,,,,,,$0.28 per kWh; $0.26 per minute above 60 kW and $0.13 per minute at or below 60 kW,,,,,,,,,,
26842,ELEC,ROYAL FARMS RFS 158 DC #1,20579 DuPont Blvd,,Georgetown,DE,19947,,888-758-4389,E,,Public,24 hours daily,,,,,,,1.0,,ChargePoint Network,http://www.chargepoint.com/,GPS,38.699191,-75.400527,3/17/2022,171573,2022-03-17 00:32:36 UTC,,,,1/27/2021,,,,,CHADEMO J1772COMBO,US,,,,Public,,public,,,,,,,,,,,,,,,,,,,,
27026,ELEC,REHOBOTH REH 2 EV2,19744-19798 DE-1,,Rehoboth Beach,DE,19971,,888-758-4389,E,,Public,24 hours daily,,,,,,2.0,,,ChargePoint Network,http://www.chargepoint.com/,GPS,38.715639,-75.109891,3/17/2022,171835,2022-03-17 00:32:36 UTC,,,,1/27/2021,,,,,J1772,US,,,,Public,,public,,,,,,,,,,,,,,,,,,,,
27123,ELEC,REHOBOTH REH 3 EV 2,36461 Seaside Outlet Dr,,Rehoboth Beach,DE,19971,,888-758-4389,E,,Public,24 hours daily,,,,,,2.0,,,ChargePoint Network,http://www.chargepoint.com/,GPS,38.718437,-75.112636,3/17/2022,171950,2022-03-17 00:32:36 UTC,,,,1/27/2021,,,,,J1772,US,,,,Public,,public,,,,,,,,,,,,,,,,,,,,
27124,ELEC,REHOBOTH REH 1 EV 2,34980 Midway Outlet Dr,,Rehoboth Beach,DE,19971,,888-758-4389,E,,Public,24 hours daily,,,,,,2.0,,,ChargePoint Network,http://www.chargepoint.com/,GPS,38.734782,-75.139228,3/17/2022,171951,2022-03-17 00:32:36 UTC,,,,1/27/2021,,,,,J1772,US,,,,Public,,public,,,,,,,,,,,,,,,,,,,,
27250,ELEC,ROYAL FARMS RFS 139 DC #2,6 W Lebanon Rd,,Dover,DE,19901,,888-758-4389,E,,Public,24 hours daily,,,,,,,1.0,,ChargePoint Network,http://www.chargepoint.com/,GPS,39.117777,-75.516134,3/17/2022,172097,2022-03-17 00:32:36 UTC,,,,1/27/2021,,,,,CHADEMO J1772COMBO,US,,,,Public,,public,,,,,,,,,,,,,,,,,,,,
27387,ELEC,ROYAL FARMS RFS 171 DC #1,11112 Laurel Road,,Laurel,DE,19956,,888-758-4389,E,,Public,24 hours daily,,,,,,,1.0,,ChargePoint Network,http://www.chargepoint.com/,GPS,38.554796,-75.555058,3/17/2022,172257,2022-03-17 00:32:36 UTC,,,,1/27/2021,,,,,CHADEMO J1772COMBO,US,,,,Public,,public,,,,,,,,,,,,,,,,,,,,
27481,ELEC,ROYAL FARMS RFS 142 DC #2,108 Silicato Parkway,,Milford,DE,19963,,888-758-4389,E,,Public,24 hours daily,,,,,,,1.0,,ChargePoint Network,http://www.chargepoint.com/,GPS,38.927238,-75.417969,3/17/2022,172369,2022-03-17 00:32:36 UTC,,,,1/27/2021,,,,,CHADEMO J1772COMBO,US,,,,Public,,public,,,,,,,,,,,,,,,,,,,,
27601,ELEC,ROYAL FARMS RFS 146 DC #1,304 N DuPont Blvd,,Smyrna,DE,19977,,888-758-4389,E,,Public,24 hours daily,,,,,,,1.0,,ChargePoint Network,http://www.chargepoint.com/,GPS,39.306624,-75.606253,3/17/2022,172515,2022-03-17 00:32:36 UTC,,,,1/27/2021,,,,,CHADEMO J1772COMBO,US,,,,Public,,public,,,,,,,,,,,,,,,,,,,,
34927,ELEC,ABESSINIO LLC STADIUM #1,1 St Rocco Way,,Wilmington,DE,19802,,888-758-4389,E,,Public,24 hours daily,,,,,,2.0,,,ChargePoint Network,http://www.chargepoint.com/,GPS,39.760418,-75.553153,3/17/2022,181749,2022-03-17 00:32:36 UTC,,,,1/27/2021,,,,,J1772,US,,,,Public,,public,,,,,,,,,,,,,,,,,,,,
34928,ELEC,ABESSINIO LLC STADIUM #2,1 St Rocco Way,,Wilmington,DE,19802,,888-758-4389,E,,Public,24 hours daily,,,,,,2.0,,,ChargePoint Network,http://www.chargepoint.com/,GPS,39.760344,-75.553159,3/17/2022,181750,2022-03-17 00:32:36 UTC,,,,1/27/2021,,,,,J1772,US,,,,Public,,public,,,,,,,,,,,,,,,,,,,,
36043,ELEC,ROMMEL SMYRNA,450 Stadium St,,Smyrna,DE,19977,,888-758-4389,E,,Public,Mon 10:00am - 7:00pm; Tue 10:00am - 7:00pm; Wed 10:00am - 7:00pm; Thu 10:00am - 7:00pm; Fri 10:00am - 7:00pm; Sat 10:00am - 7:00pm; Sun 10:00am - 7:00pm,,,,,,,1.0,,ChargePoint Network,http://www.chargepoint.com/,GPS,39.278042,-75.587482,3/17/2022,183094,2022-03-17 00:32:36 UTC,,,,1/27/2021,,,,,J1772COMBO,US,,,,Public,,public,,,,,,,,,,,,,,,,,,,,
36948,ELEC,SEMAConnect,163 Scannell Blvd,,Bethany Beach,DE,19930,,,E,,Private,,,,,,,2.0,,,Non-Networked,,GPS,38.546051,-75.060909,2/22/2021,184408,2021-08-04 00:01:52 UTC,FG,6.0,Department of Army,1/15/2021,,,,,J1772,US,,,,Privé,,private,,DA,FED_GOV,,,,,,,,,,,,,,,,,
36949,ELEC,SEMAConnect,1 Vavala Way,,New Castle,DE,19720,,,E,,Private,,,,,,,2.0,,,Non-Networked,,GPS,39.683249,-75.617612,2/22/2021,184409,2021-08-04 00:01:52 UTC,FG,6.0,Department of Army,1/15/2021,,,,,J1772,US,,,,Privé,,private,,DA,FED_GOV,,,,,,,,,,,,,,,,,
37841,ELEC,Beach Plum Dunes,36916 Crooked Hammock Way,,Lewes,DE,19958,,800-663-5633,E,,Public,MO: Not Specified; TU: Not Specified; WE: Not Specified; TH: Not Specified; FR: Not Specified; SA: Not Specified; SU: Not Specified,,,,,,4.0,,,SemaCharge Network,https://semaconnect.com/,GPS,38.7452862,-75.1493848,3/17/2022,185561,2022-03-17 00:22:38 UTC,,,,3/5/2021,,,,,J1772,US,,,,Public,,public,,,,,,,,,,$2.00/Hr Parking Fee,,,,,,,,,,
37972,ELEC,Lutheran Church of Our Savior,20276 Bay Vista Road,,Rehoboth Beach,DE,19971,,800-663-5633,E,,Public,MO: Not Specified; TU: Not Specified; WE: Not Specified; TH: Not Specified; FR: Not Specified; SA: Not Specified; SU: Not Specified,,,,,,2.0,,,SemaCharge Network,https://semaconnect.com/,GPS,38.709294,-75.0977516,3/17/2022,186103,2022-03-17 00:22:38 UTC,,,,3/12/2021,,,,,J1772,US,,,,Public,,public,,,,,,,,,,"$1.00/Hr Parking Fee , $0.20/kWh Energy Fee",,,,,,,,,,
38944,ELEC,Wawa - Tesla Supercharger,5018 Summit Bridge Road,,Middletown,DE,19709,,877-798-3752,E,,Public,24 hours daily; for Tesla use only,,,,,,,8.0,,Tesla,https://www.tesla.com/supercharger,GPS,39.479708,-75.720734,10/11/2021,187960,2021-11-04 18:37:47 UTC,P,,,4/19/2021,,,,,TESLA,US,,,,Public,,public,,,CONVENIENCE_STORE,,,,,,,$0.28 per kWh; $0.26 per minute above 60 kW and $0.13 per minute at or below 60 kW,,,,,,,,,,
39154,ELEC,WILMINGTON HOSP LEVEL 2 UNIT 1,1200 Washington St,,Wilmington,DE,19801,,888-758-4389,E,,Public,24 hours daily,,,,,,2.0,,,ChargePoint Network,http://www.chargepoint.com/,GPS,39.750062,-75.550017,3/17/2022,189067,2022-03-17 00:32:36 UTC,,,,4/30/2021,,,,,J1772,US,,,,Public,,public,,,,,,,,,,,,,,,,,,,,
39155,ELEC,WILMINGTON HOSP LEVEL 3 UNIT 2,1200 Washington St,,Wilmington,DE,19801,,888-758-4389,E,,Public,24 hours daily,,,,,,2.0,,,ChargePoint Network,http://www.chargepoint.com/,GPS,39.750195,-75.549941,3/17/2022,189068,2022-03-17 00:32:36 UTC,,,,4/30/2021,,,,,J1772,US,,,,Public,,public,,,,,,,,,,,,,,,,,,,,
39156,ELEC,WILMINGTON HOSP LEVEL 4 UNIT 1,1200 Washington St,,Wilmington,DE,19801,,888-758-4389,E,,Public,24 hours daily,,,,,,2.0,,,ChargePoint Network,http://www.chargepoint.com/,GPS,39.750132,-75.550067,3/17/2022,189069,2022-03-17 00:32:36 UTC,,,,4/30/2021,,,,,J1772,US,,,,Public,,public,,,,,,,,,,,,,,,,,,,,
39157,ELEC,WILMINGTON HOSP LEVEL 3 UNIT 3,Washington St @ 13th St,,Wilmington,DE,19801,,888-758-4389,E,,Public,24 hours daily,,,,,,2.0,,,ChargePoint Network,http://www.chargepoint.com/,GPS,39.750097,-75.550194,3/17/2022,189070,2022-03-17 00:32:36 UTC,,,,4/30/2021,,,,,J1772,US,,,,Public,,public,,,,,,,,,,,,,,,,,,,,
39158,ELEC,WILMINGTON HOSP LEVEL 6 UNIT 1,1200 Washington St,,Wilmington,DE,19801,,888-758-4389,E,,Public,24 hours daily,,,,,,2.0,,,ChargePoint Network,http://www.chargepoint.com/,GPS,39.750106,-75.550145,3/17/2022,189072,2022-03-17 00:32:36 UTC,,,,4/30/2021,,,,,J1772,US,,,,Public,,public,,,,,,,,,,,,,,,,,,,,
39159,ELEC,WILMINGTON HOSP LEVEL 6 UNIT 2,1200 Washington St,,Wilmington,DE,19801,,888-758-4389,E,,Public,24 hours daily,,,,,,2.0,,,ChargePoint Network,http://www.chargepoint.com/,GPS,39.750097,-75.550046,3/17/2022,189073,2022-03-17 00:32:36 UTC,,,,4/30/2021,,,,,J1772,US,,,,Public,,public,,,,,,,,,,,,,,,,,,,,
39160,ELEC,WILMINGTON HOSP LEVEL 3 UNIT 1,1200 Washington St,,Wilmington,DE,19801,,888-758-4389,E,,Public,24 hours daily,,,,,,2.0,,,ChargePoint Network,http://www.chargepoint.com/,GPS,39.750208,-75.550117,3/17/2022,189074,2022-03-17 00:32:36 UTC,,,,4/30/2021,,,,,J1772,US,,,,Public,,public,,,,,,,,,,,,,,,,,,,,
39161,ELEC,WILMINGTON HOSP LEVEL 5 UNIT 2,1200 Washington St,,Wilmington,DE,19801,,888-758-4389,E,,Public,24 hours daily,,,,,,2.0,,,ChargePoint Network,http://www.chargepoint.com/,GPS,39.750072,-75.55009,3/17/2022,189075,2022-03-17 00:32:36 UTC,,,,4/30/2021,,,,,J1772,US,,,,Public,,public,,,,,,,,,,,,,,,,,,,,
39162,ELEC,WILMINGTON HOSP LEVEL 5 UNIT 1,1200 Washington St,,Wilmington,DE,19801,,888-758-4389,E,,Public,24 hours daily,,,,,,2.0,,,ChargePoint Network,http://www.chargepoint.com/,GPS,39.750184,-75.550231,3/17/2022,189076,2022-03-17 00:32:36 UTC,,,,4/30/2021,,,,,J1772,US,,,,Public,,public,,,,,,,,,,,,,,,,,,,,
39163,ELEC,WILMINGTON HOSP LEVEL 5 UNIT 3,1200 Washington St,,Wilmington,DE,19801,,888-758-4389,E,,Public,24 hours daily,,,,,,2.0,,,ChargePoint Network,http://www.chargepoint.com/,GPS,39.750203,-75.5501,3/17/2022,189077,2022-03-17 00:32:36 UTC,,,,4/30/2021,,,,,J1772,US,,,,Public,,public,,,,,,,,,,,,,,,,,,,,
39635,ELEC,DE TRANSIT CORP 2CC STATION 2,101 West St,,Wilmington,DE,19801,,888-758-4389,E,,Public,24 hours daily,,,,,,2.0,,,ChargePoint Network,http://www.chargepoint.com/,GPS,39.738536,-75.557733,3/17/2022,189765,2022-03-17 00:32:36 UTC,,,,5/18/2021,,,,,J1772,US,,,,Public,,public,,,,,,,,,,,,,,,,,,,,
39636,ELEC,DE TRANSIT CORP 2CC STATION 1,101 West St,,Wilmington,DE,19801,,888-758-4389,E,,Public,24 hours daily,,,,,,2.0,,,ChargePoint Network,http://www.chargepoint.com/,GPS,39.738454,-75.55765,3/17/2022,189766,2022-03-17 00:32:36 UTC,,,,5/18/2021,,,,,J1772,US,,,,Public,,public,,,,,,,,,,,,,,,,,,,,
39674,ELEC,DE TRANSIT CORP LEWES TRANSIT 1,17644 Coastal Hwy,,Lewes,DE,19958,,888-758-4389,E,,Public,24 hours daily,,,,,,2.0,,,ChargePoint Network,http://www.chargepoint.com/,GPS,38.747838,-75.169207,3/17/2022,189819,2022-03-17 00:32:36 UTC,,,,5/20/2021,,,,,J1772,US,,,,Public,,public,,,,,,,,,,,,,,,,,,,,
39675,ELEC,DE TRANSIT CORP NEWARK RAIL,468 S College Ave,,Newark,DE,19711,,888-758-4389,E,,Public,24 hours daily,,,,,,2.0,,,ChargePoint Network,http://www.chargepoint.com/,GPS,39.669728,-75.753251,3/17/2022,189820,2022-03-17 00:32:36 UTC,,,,5/20/2021,,,,,J1772,US,,,,Public,,public,,,,,,,,,,,,,,,,,,,,
40166,ELEC,DE TRANSIT CORP LEWES TRANSIT 2,17644 Coastal Hwy,,Lewes,DE,19958,,888-758-4389,E,,Public,24 hours daily,,,,,,2.0,,,ChargePoint Network,http://www.chargepoint.com/,GPS,38.747845,-75.16918,3/17/2022,190783,2022-03-17 00:32:36 UTC,,,,6/8/2021,,,,,J1772,US,,,,Public,,public,,,,,,,,,,,,,,,,,,,,
40169,ELEC,DE TRANSIT CORP NEWARK RAIL 3,468 S College Ave,,Newark,DE,19711,,888-758-4389,E,,Public,24 hours daily,,,,,,2.0,,,ChargePoint Network,http://www.chargepoint.com/,GPS,39.669657,-75.753234,3/17/2022,190786,2022-03-17 00:32:36 UTC,,,,6/8/2021,,,,,J1772,US,,,,Public,,public,,,,,,,,,,,,,,,,,,,,
40170,ELEC,DE TRANSIT CORP NEWARK RAIL 4,468 S College Ave,,Newark,DE,19711,,888-758-4389,E,,Public,24 hours daily,,,,,,2.0,,,ChargePoint Network,http://www.chargepoint.com/,GPS,39.669532,-75.753194,3/17/2022,190787,2022-03-17 00:32:36 UTC,,,,6/8/2021,,,,,J1772,US,,,,Public,,public,,,,,,,,,,,,,,,,,,,,
40171,ELEC,DE TRANSIT CORP NEWARK RAIL 5,468 S College Ave,,Newark,DE,19711,,888-758-4389,E,,Public,24 hours daily,,,,,,2.0,,,ChargePoint Network,http://www.chargepoint.com/,GPS,39.669536,-75.753155,3/17/2022,190788,2022-03-17 00:32:36 UTC,,,,6/8/2021,,,,,J1772,US,,,,Public,,public,,,,,,,,,,,,,,,,,,,,
40172,ELEC,DE TRANSIT CORP NEWARK RAIL 2,468 S College Ave,,Newark,DE,19711,,888-758-4389,E,,Public,24 hours daily,,,,,,2.0,,,ChargePoint Network,http://www.chargepoint.com/,GPS,39.669665,-75.753186,3/17/2022,190789,2022-03-17 00:32:36 UTC,,,,6/8/2021,,,,,J1772,US,,,,Public,,public,,,,,,,,,,,,,,,,,,,,
40271,ELEC,DE TRANSIT CORP RPD 2,100 South French St,,Wilmington,DE,19801,,888-758-4389,E,,Public,24 hours daily,,,,,,2.0,,,ChargePoint Network,http://www.chargepoint.com/,GPS,39.73692,-75.55211,3/17/2022,190921,2022-03-17 00:32:36 UTC,,,,6/12/2021,,,,,J1772,US,,,,Public,,public,,,,,,,,,,,,,,,,,,,,
40329,ELEC,CONVENT CENTER CONVENTION #2,123 2nd St,,Rehoboth Beach,DE,19971,,888-758-4389,E,,Public,24 hours daily,,,,,,2.0,,,ChargePoint Network,http://www.chargepoint.com/,GPS,38.716843,-75.08242,3/17/2022,191034,2022-03-17 00:32:36 UTC,,,,6/16/2021,,,,,J1772,US,,,,Public,,public,,,,,,,,,,,,,,,,,,,,
40330,ELEC,CONVENT CENTER CONVENTION #1,105 2nd St,,Rehoboth Beach,DE,19971,,888-758-4389,E,,Public,24 hours daily,,,,,,2.0,,,ChargePoint Network,http://www.chargepoint.com/,GPS,38.716904,-75.082466,3/17/2022,191035,2022-03-17 00:32:36 UTC,,,,6/16/2021,,,,,J1772,US,,,,Public,,public,,,,,,,,,,,,,,,,,,,,
40499,ELEC,0055-27W3RD#6LOC,27 West 3rd Street,,New Castle,DE,19720,,800-663-5633,E,,Public,MO: Not Specified; TU: Not Specified; WE: Not Specified; TH: Not Specified; FR: Not Specified; SA: Not Specified; SU: Not Specified,,,,,,1.0,,,SemaCharge Network,https://semaconnect.com/,GPS,39.6589839,-75.564986,3/17/2022,191336,2022-03-17 00:22:38 UTC,,,,6/23/2021,,,,,J1772,US,,,,Public,,public,,,,,,,,,,$0.30/kWh Energy Fee,,,,,,,,,,
40503,ELEC,Sandpiper Plaza,18949 Coastal Highway,,Rehoboth Beach,DE,19971,,800-663-5633,E,,Public,MO: Not Specified; TU: Not Specified; WE: Not Specified; TH: Not Specified; FR: Not Specified; SA: Not Specified; SU: Not Specified,,,,,,2.0,,,SemaCharge Network,https://semaconnect.com/,GPS,38.7308284,-75.1316891,3/17/2022,191341,2022-03-17 00:22:38 UTC,,,,6/23/2021,,,,,J1772,US,,,,Public,,public,,,,,,,,,,$2.00/Hr Parking Fee,,,,,,,,,,
41184,ELEC,DE TRANSIT CORP RPD 1,100 South French St,,Wilmington,DE,19801,,888-758-4389,E,,Public,24 hours daily,,,,,,2.0,,,ChargePoint Network,http://www.chargepoint.com/,GPS,39.736901,-75.552094,3/17/2022,193100,2022-03-17 00:32:36 UTC,,,,7/23/2021,,,,,J1772,US,,,,Public,,public,,,,,,,,,,,,,,,,,,,,
41185,ELEC,DE TRANSIT CORP MILFORD PNR 2,DE-1,,Milford,DE,19963,,888-758-4389,E,,Public,24 hours daily,,,,,,2.0,,,ChargePoint Network,http://www.chargepoint.com/,GPS,38.991536,-75.44968,3/17/2022,193101,2022-03-17 00:32:36 UTC,,,,7/23/2021,,,,,J1772,US,,,,Public,,public,,,,,,,,,,,,,,,,,,,,
41186,ELEC,DE TRANSIT CORP MILFORD PNR 1,DE-1,,Milford,DE,19963,,888-758-4389,E,,Public,24 hours daily,,,,,,2.0,,,ChargePoint Network,http://www.chargepoint.com/,GPS,38.991578,-75.449733,3/17/2022,193102,2022-03-17 00:32:36 UTC,,,,7/23/2021,,,,,J1772,US,,,,Public,,public,,,,,,,,,,,,,,,,,,,,
42073,ELEC,Christiana Mall - Cheesecake Factory,132 Christiana Mall,,Christiana,DE,19702,,,E,,Public - Credit card at all times,24 hours daily,A D Debit M V,,,,,,1.0,,Volta,https://voltacharging.com/,GPS,39.67913115,-75.65083685,9/10/2021,194538,2022-02-10 19:42:29 UTC,P,,,8/26/2021,,,,,J1772COMBO,US,,,,Public - Carte de crédit en tout temps,,public,CREDIT_CARD_ALWAYS,,SHOPPING_MALL,,,,,,,FREE for first 30 minutes,,,,,,,,,,
42547,ELEC,Biden NG/RC,1 Vavala Way,"ATTN USERS:
This is a secure facility.  These stations are only available to staff, fleet, or approved visitors.  This station is not open to the general public.",New Castle,DE,19720,,800-663-5633,E,,Public,MO: Not Specified; TU: Not Specified; WE: Not Specified; TH: Not Specified; FR: Not Specified; SA: Not Specified; SU: Not Specified,,,,,,4.0,,,SemaCharge Network,https://semaconnect.com/,GPS,39.68322968,-75.61769485,3/17/2022,195179,2022-03-17 00:22:38 UTC,,,,9/5/2021,,,,,J1772,US,,,,Public,,public,,,,,,,,,,FREE,,,,,,,,,,
42666,ELEC,Delaware Army Aviation Support Facility,33 Corporate Circle,,New Castle,DE,19720,,800-663-5633,E,,Public,MO: Not Specified; TU: Not Specified; WE: Not Specified; TH: Not Specified; FR: Not Specified; SA: Not Specified; SU: Not Specified,,,,,,2.0,,,SemaCharge Network,https://semaconnect.com/,GPS,39.6827039,-75.6156265,3/17/2022,195332,2022-03-17 00:22:38 UTC,,,,9/6/2021,,,,,J1772,US,,,,Public,,public,,,,,,,,,,FREE,,,,,,,,,,
42760,ELEC,5600 Concord,5600 Concord Pike,,Wilmington,DE,19803,,800-663-5633,E,,Public,MO: Not Specified; TU: Not Specified; WE: Not Specified; TH: Not Specified; FR: Not Specified; SA: Not Specified; SU: Not Specified,,,,,,2.0,,,SemaCharge Network,https://semaconnect.com/,GPS,39.8344052,-75.5435914,3/17/2022,195442,2022-03-17 00:22:38 UTC,,,,9/7/2021,,,,,J1772,US,,,,Public,,public,,,,,,,,,,$0.00-$2.00/Hr Variable Parking Fee,,,,,,,,,,
42761,ELEC,Brandywine Hundred Library,1300 Foulk Road,,Wilmington,DE,19803,,800-663-5633,E,,Public,MO: Not Specified; TU: Not Specified; WE: Not Specified; TH: Not Specified; FR: Not Specified; SA: Not Specified; SU: Not Specified,,,,,,2.0,,,SemaCharge Network,https://semaconnect.com/,GPS,39.7955835,-75.5244855,3/17/2022,195443,2022-03-17 00:22:38 UTC,,,,9/7/2021,,,,,J1772,US,,,,Public,,public,,,,,,,,,,FREE,,,,,,,,,,
42778,ELEC,The Avenue Inn,33 Wilmington Avenue,,Rehoboth Beach,DE,19971,,800-663-5633,E,,Public,MO: Not Specified; TU: Not Specified; WE: Not Specified; TH: Not Specified; FR: Not Specified; SA: Not Specified; SU: Not Specified,,,,,,1.0,,,SemaCharge Network,https://semaconnect.com/,GPS,38.7158098,-75.0793025,3/17/2022,195465,2022-03-17 00:22:38 UTC,,,,9/7/2021,,,,,J1772,US,,,,Public,,public,,,,,,,,,,FREE,,,,,,,,,,
42893,ELEC,0055-27W3RD#5LOC,27 West 3rd Street,,New Castle,DE,19720,,800-663-5633,E,,Public,MO: Not Specified; TU: Not Specified; WE: Not Specified; TH: Not Specified; FR: Not Specified; SA: Not Specified; SU: Not Specified,,,,,,1.0,,,SemaCharge Network,https://semaconnect.com/,GPS,39.6589839,-75.564986,3/17/2022,195587,2022-03-17 00:22:38 UTC,,,,9/8/2021,,,,,J1772,US,,,,Public,,public,,,,,,,,,,$0.30/kWh Energy Fee,,,,,,,,,,
43541,ELEC,WILMINGTON HOSP LEVEL 4 UNIT 3,1200 Washington St,,Wilmington,DE,19801,,888-758-4389,E,,Public,24 hours daily,,,,,,2.0,,,ChargePoint Network,http://www.chargepoint.com/,GPS,39.750193,-75.550063,3/17/2022,196486,2022-03-17 00:32:36 UTC,,,,9/30/2021,,,,,J1772,US,,,,Public,,public,,,,,,,,,,,,,,,,,,,,
43563,ELEC,Wawa - Tesla Supercharger,4000 North Dupont Highway,,New Castle,DE,19720,,877-798-3752,E,,Public,24 hours daily; for Tesla use only,A D Debit M V,,,,,,8.0,,Tesla,https://www.tesla.com/supercharger,GPS,39.70988,-75.56193,10/11/2021,196520,2021-11-04 18:37:47 UTC,P,,,9/25/2021,,,,,TESLA,US,,,,Public,,public,,,GAS_STATION,,,,,,,$0.28 per kWh; $0.26 per minute above 60 kW and $0.13 per minute at or below 60 kW,,,,,,,,,,
43677,ELEC,Wilmington,,,Wilmington,DE,19802,,,E,,Private - Government only,24 hours daily; Drivers must bring their own J1772 cordset for Level 1 charging,,,,,3.0,,,,Non-Networked,,GPS,39.744655,-75.548391,10/12/2021,196751,2022-02-10 21:00:18 UTC,FG,13.0,Department of Labor,9/21/2021,,,,,NEMA1450,US,,,,Privé - Réservé au gouvernement,,private,GOVERNMENT,DOL,FED_GOV,,,,,,,,,,,,,,,,,
45284,ELEC,CITY OF NEWARK CH STATION 2,264 S Main St,,Newark,DE,19711,,888-758-4389,E,,Public,24 hours daily,,,,,,2.0,,,ChargePoint Network,http://www.chargepoint.com/,GPS,39.677188,-75.763945,3/17/2022,199163,2022-03-17 00:32:36 UTC,,,,10/27/2021,,,,,J1772,US,,,,Public,,public,,,,,,,,,,,,,,,,,,,,
45483,ELEC,0063-27W3RD#4LOC,27 West 3rd Street,,New Castle,DE,19720,,800-663-5633,E,,Public,MO: Not Specified; TU: Not Specified; WE: Not Specified; TH: Not Specified; FR: Not Specified; SA: Not Specified; SU: Not Specified,,,,,,1.0,,,SemaCharge Network,https://semaconnect.com/,GPS,39.6589839,-75.564986,3/17/2022,199402,2022-03-17 00:22:38 UTC,,,,10/29/2021,,,,,J1772,US,,,,Public,,public,,,,,,,,,,$0.30/kWh Energy Fee,,,,,,,,,,
45522,ELEC,0063-27W3RD#3LOC,27 West 3rd Street,,New Castle,DE,19720,,800-663-5633,E,,Public,MO: Not Specified; TU: Not Specified; WE: Not Specified; TH: Not Specified; FR: Not Specified; SA: Not Specified; SU: Not Specified,,,,,,1.0,,,SemaCharge Network,https://semaconnect.com/,GPS,39.6589839,-75.564986,3/17/2022,199469,2022-03-17 00:22:38 UTC,,,,10/30/2021,,,,,J1772,US,,,,Public,,public,,,,,,,,,,$0.30/kWh Energy Fee,,,,,,,,,,
45586,ELEC,CITY OF NEWARK LOT 1 STATION 1,54 E Delaware Ave,,Newark,DE,19711,,888-758-4389,E,,Public,24 hours daily,,,,,,2.0,,,ChargePoint Network,http://www.chargepoint.com/,GPS,39.682557,-75.751242,3/17/2022,200415,2022-03-17 00:32:36 UTC,,,,11/2/2021,,,,,J1772,US,,,,Public,,public,,,,,,,,,,,,,,,,,,,,
45770,ELEC,CITY OF NEWARK CH STATION 1,250 Elkton Rd,,Newark,DE,19711,,888-758-4389,E,,Public,24 hours daily,,,,,,2.0,,,ChargePoint Network,http://www.chargepoint.com/,GPS,39.67718,-75.764115,3/17/2022,200738,2022-03-17 00:32:36 UTC,,,,11/9/2021,,,,,J1772,US,,,,Public,,public,,,,,,,,,,,,,,,,,,,,
45849,ELEC,DTCC OWENS STATION 1,21583-21619 Vaughn Rd,,Georgetown,DE,19947,,888-758-4389,E,,Public,24 hours daily,,,,,,2.0,,,ChargePoint Network,http://www.chargepoint.com/,GPS,38.694812,-75.412253,3/17/2022,200977,2022-03-17 00:32:36 UTC,,,,11/11/2021,,,,,J1772,US,,,,Public,,public,,,,,,,,,,,,,,,,,,,,
45958,ELEC,DEC EMPLOYEE DEC VISITOR,14198 Sussex Hwy,,Greenwood,DE,19950,,888-758-4389,E,,Public,24 hours daily,,,,,,2.0,,,ChargePoint Network,http://www.chargepoint.com/,GPS,38.791154,-75.591795,3/17/2022,201168,2022-03-17 00:32:36 UTC,,,,11/16/2021,,,,,J1772,US,,,,Public,,public,,,,,,,,,,,,,,,,,,,,
45959,ELEC,DEC EMPLOYEE DEC EMPLOYEE 1,14198 Sussex Hwy,,Greenwood,DE,19950,,888-758-4389,E,,Public,24 hours daily,,,,,,2.0,,,ChargePoint Network,http://www.chargepoint.com/,GPS,38.79114,-75.5918,3/17/2022,201169,2022-03-17 00:32:36 UTC,,,,11/16/2021,,,,,J1772,US,,,,Public,,public,,,,,,,,,,,,,,,,,,,,
45968,ELEC,NEMOURS PATIENTGARAGE1,1600 Rockland Rd,,Wilmington,DE,19803,,888-758-4389,E,,Public,24 hours daily,,,,,,2.0,,,ChargePoint Network,http://www.chargepoint.com/,GPS,39.778385,-75.555335,3/17/2022,201180,2022-03-17 00:32:36 UTC,,,,11/16/2021,,,,,J1772,US,,,,Public,,public,,,,,,,,,,,,,,,,,,,,
45990,ELEC,DEC EMPLOYEE DEC EMPLOYEE 2,14198 Sussex Hwy,,Greenwood,DE,19950,,888-758-4389,E,,Public,24 hours daily,,,,,,2.0,,,ChargePoint Network,http://www.chargepoint.com/,GPS,38.791039,-75.5918,3/17/2022,201209,2022-03-17 00:32:36 UTC,,,,11/17/2021,,,,,J1772,US,,,,Public,,public,,,,,,,,,,,,,,,,,,,,
46124,ELEC,BRANCH BRANDYWINE,3 Mt Lebanon Rd,,Wilmington,DE,19803,,888-758-4389,E,,Public,24 hours daily,,,,,,2.0,,,ChargePoint Network,http://www.chargepoint.com/,GPS,39.80711,-75.55094,3/17/2022,201418,2022-03-17 00:32:36 UTC,,,,11/19/2021,,,,,J1772,US,,,,Public,,public,,,,,,,,,,,,,,,,,,,,
46209,ELEC,BRANCH CENTRAL,501 W 11th St,,Wilmington,DE,19801,,888-758-4389,E,,Public,24 hours daily,,,,,,2.0,,,ChargePoint Network,http://www.chargepoint.com/,GPS,39.748745,-75.55178,3/17/2022,201571,2022-03-17 00:32:36 UTC,,,,11/24/2021,,,,,J1772,US,,,,Public,,public,,,,,,,,,,,,,,,,,,,,
46329,ELEC,ABESSINIO LLC SALESIANUM ST1,1801 N Broom St,,Wilmington,DE,19802,,888-758-4389,E,,Public,24 hours daily,,,,,,2.0,,,ChargePoint Network,http://www.chargepoint.com/,GPS,39.761063,-75.549416,3/17/2022,201813,2022-03-17 00:32:36 UTC,,,,12/1/2021,,,,,J1772,US,,,,Public,,public,,,,,,,,,,,,,,,,,,,,
46712,ELEC,DelDOT Construction Office,80 Chapman Road,2 Chargers located in gated access area along side of building. Gate is open 7am to 3pm on weekdays.,Newark,DE,19713,,800-663-5633,E,,Public,MO: 07:00am-03:00pm; TU: 07:00am-03:00pm; WE: 07:00am-03:00pm; TH: 07:00am-03:00pm; FR: 07:00am-03:00pm; SA: Closed; SU: Closed,,,,,,2.0,,,SemaCharge Network,https://semaconnect.com/,GPS,39.6660728,-75.6893088,3/17/2022,202282,2022-03-17 00:22:38 UTC,,,,12/10/2021,,,,,J1772,US,,,,Public,,public,,,,,,,,,,FREE,,,,,,,,,,
46993,ELEC,High/Spring Street EV Charger,405 High Street,Parking space on corner of High/Spring Street,Seaford,DE,19973,,800-663-5633,E,,Public,MO: Not Specified; TU: Not Specified; WE: Not Specified; TH: Not Specified; FR: Not Specified; SA: Not Specified; SU: Not Specified,,,,,,2.0,,,SemaCharge Network,https://semaconnect.com/,GPS,38.6413834,-75.610232,3/17/2022,202708,2022-03-17 00:22:38 UTC,,,,12/17/2021,,,,,J1772,US,,,,Public,,public,,,,,,,,,,$1.00/Hr Parking Fee,,,,,,,,,,
47165,ELEC,DIVER CHEVY EXTERNAL FAST,1301 N Grant Ave,,Wilmington,DE,19806,,888-758-4389,E,,Public,24 hours daily,,,,,,,1.0,,ChargePoint Network,http://www.chargepoint.com/,GPS,39.757682,-75.568278,3/17/2022,202959,2022-03-17 00:32:36 UTC,,,,12/23/2021,,,,,CHADEMO J1772COMBO,US,,,,Public,,public,,,,,,,,,,,,,,,,,,,,
48311,ELEC,DE TRANSIT CORP DOVER ADMIN 1,900 Public Safety Blvd,,Dover,DE,19901,,888-758-4389,E,,Public,24 hours daily,,,,,,2.0,,,ChargePoint Network,http://www.chargepoint.com/,GPS,39.149655,-75.507626,3/17/2022,205693,2022-03-17 00:32:36 UTC,,,,2/2/2022,,,,,J1772,US,,,,Public,,public,,,,,,,,,,,,,,,,,,,,
48312,ELEC,DE TRANSIT CORP DOVER ADMIN 2,900 Public Safety Blvd,,Dover,DE,19901,,888-758-4389,E,,Public,24 hours daily,,,,,,2.0,,,ChargePoint Network,http://www.chargepoint.com/,GPS,39.149731,-75.507665,3/17/2022,205694,2022-03-17 00:32:36 UTC,,,,2/2/2022,,,,,J1772,US,,,,Public,,public,,,,,,,,,,,,,,,,,,,,
48433,ELEC,0064625DEL#1LOC,625 Delaware Street,,New Castle,DE,19720,,800-663-5633,E,,Public,MO: Not Specified; TU: Not Specified; WE: Not Specified; TH: Not Specified; FR: Not Specified; SA: Not Specified; SU: Not Specified,,,,,,1.0,,,SemaCharge Network,https://semaconnect.com/,GPS,39.6630687,-75.5677546,3/17/2022,205898,2022-03-17 00:22:38 UTC,,,,2/5/2022,,,,,J1772,US,,,,Public,,public,,,,,,,,,,$0.30/kWh Energy Fee,,,,,,,,,,
48434,ELEC,0064625DEL#2LOC,625 Delaware Street,,New Castle,DE,19720,,800-663-5633,E,,Public,MO: Not Specified; TU: Not Specified; WE: Not Specified; TH: Not Specified; FR: Not Specified; SA: Not Specified; SU: Not Specified,,,,,,1.0,,,SemaCharge Network,https://semaconnect.com/,GPS,39.6630687,-75.5677546,3/17/2022,205899,2022-03-17 00:22:38 UTC,,,,2/5/2022,,,,,J1772,US,,,,Public,,public,,,,,,,,,,$0.30/kWh Energy Fee,,,,,,,,,,
48497,ELEC,"DelDOT, Maintenance & Operations - Equipment Management",800 South Bay Road,,Dover,DE,19901,,800-663-5633,E,,Public,MO: Not Specified; TU: Not Specified; WE: Not Specified; TH: Not Specified; FR: Not Specified; SA: Not Specified; SU: Not Specified,,,,,,2.0,,,SemaCharge Network,https://semaconnect.com/,GPS,39.1486337,-75.5050131,3/17/2022,205978,2022-03-17 00:22:38 UTC,,,,2/8/2022,,,,,J1772,US,,,,Public,,public,,,,,,,,,,FREE,,,,,,,,,,
48828,ELEC,Christiana Hospital MAP2 Rear Parking,4735 Ogletown Stanton Rd,,Newark,DE,19713,,800-663-5633,E,,Public,MO: Not Specified; TU: Not Specified; WE: Not Specified; TH: Not Specified; FR: Not Specified; SA: Not Specified; SU: Not Specified,,,,,,8.0,,,SemaCharge Network,https://semaconnect.com/,GPS,39.6855886,-75.6730825,3/17/2022,206463,2022-03-17 00:22:38 UTC,,,,2/17/2022,,,,,J1772,US,,,,Public,,public,,,,,,,,,,$0.08/kWh Energy Fee,,,,,,,,,,
49396,ELEC,Wawa - Tesla Supercharger,22929 Sussex Hwy,,Seaford,DE,19973,,877-798-3752,E,,Public - Credit card at all times,24 hours daily,A D Debit M V,,,,,,8.0,,Tesla,https://www.tesla.com/supercharger,GPS,38.658528,-75.592966,,207549,2022-03-17 21:56:28 UTC,P,,,2/25/2022,,,,,TESLA,US,,,,Public - Carte de crédit en tout temps,,public,CREDIT_CARD_ALWAYS,,GAS_STATION,,,,,,,,,,,,,,,,,
